App\Entity\Port:
    port_marseille:
        name: 'Port de Marseille'
        city: 'Marseille'
        latitude: '43.2965'
        longitude: '5.3698'
        capacity: 150

    port_nice:
        name: 'Port de Nice'
        city: 'Nice'
        latitude: '43.6956'
        longitude: '7.2620'
        capacity: 80

    port_toulon:
        name: 'Port de Toulon'
        city: 'Toulon'
        latitude: '43.1242'
        longitude: '5.9280'
        capacity: 120

    port_cannes:
        name: 'Port de Cannes'
        city: 'Cannes'
        latitude: '43.5528'
        longitude: '7.0174'
        capacity: 60

    port_sete:
        name: 'Port de Sète'
        city: 'Sète'
        latitude: '43.4019'
        longitude: '3.6966'
        capacity: 90

    port_brest:
        name: 'Port de Brest'
        city: 'Brest'
        latitude: '48.3834'
        longitude: '-4.4949'
        capacity: 200

    port_bordeaux:
        name: 'Port de Bordeaux'
        city: 'Bordeaux'
        latitude: '44.8378'
        longitude: '-0.5792'
        capacity: 110

    port_lorient:
        name: 'Port de Lorient'
        city: 'Lorient'
        latitude: '47.7485'
        longitude: '-3.3596'
        capacity: 75
